City_ID,City,Country,Max Temp,Current Description,Lat,Lng,Hotel Name
3,Butaritari,KI,81.3,scattered clouds,3.0707,172.7902,Isles Sunset Lodge
9,Kapaa,US,80.58,few clouds,22.0752,-159.319,Sheraton Kauai Coconut Beach Resort
12,Mount Isa,AU,74.97,clear sky,-20.7333,139.5,ibis Styles Mt Isa Verona
13,Rikitea,PF,78.12,light rain,-23.1203,-134.9692,People ThankYou
16,Waingapu,ID,79.27,light rain,-9.6567,120.2641,Pondok Wisata Elim
24,Itarema,BR,79.09,broken clouds,-2.9248,-39.9167,"Sea Lounge! Bar, Club & Restaurant"
26,Puerto Ayora,EC,80.56,broken clouds,-0.7393,-90.3518,Finch Bay Galapagos Hotel
30,Kariba,ZW,74.14,broken clouds,-16.5167,28.8,Caribbea Bay Hotel
33,Georgetown,MY,79.95,few clouds,5.4112,100.3354,Cititel Penang
35,Sao Jose Da Coroa Grande,BR,81.25,clear sky,-8.8978,-35.1478,Crôa Mares Hotel
37,Isangel,VU,83.28,clear sky,-19.55,169.2667,Tanna Lodge
38,Alenquer,BR,77.14,overcast clouds,-1.9417,-54.7383,Detinha Hotel
42,Faanui,PF,82.13,clear sky,-16.4833,-151.75,Bora-Bora Pearl Beach Resort & Spa
43,Arlit,NE,79.41,overcast clouds,18.7369,7.3853,Case de Passage De la Prefecture
50,Bambous Virieux,MU,79.05,light rain,-20.3428,57.7575,Casa Tia Villa
56,Wanning,CN,76.62,overcast clouds,18.8003,110.3967,Paradise Hotel
61,Vaini,TO,84.36,scattered clouds,-21.2,-175.2,Keleti Beach Resort
62,San Andres,CO,84.22,few clouds,12.5847,-81.7006,Hotel Arena Blanca
63,Pangkalanbuun,ID,72.18,overcast clouds,-2.6833,111.6167,Grand Kecubung Hotel
65,Gainesville,US,86.11,few clouds,29.6516,-82.3248,Wyndham Garden Gainesville
67,Sterling,US,79.66,broken clouds,39.0062,-77.4286,Hampton Inn & Suites Washington-Dulles International Airport
72,Hilo,US,76.28,light rain,19.7297,-155.09,Hilo Hawaiian Hotel
74,Cairns,AU,76.95,overcast clouds,-16.9167,145.7667,Mantra Trilogy Cairns
77,Sao Filipe,CV,71.01,scattered clouds,14.8961,-24.4956,Hotel Xaguate
82,Kattivakkam,IN,86.09,scattered clouds,13.2167,80.3167,Euronova Freezer
88,Tshela,CD,73.51,broken clouds,-4.9833,12.9333,Hotel Mirador
90,Ouesso,CG,75.79,light rain,1.6136,16.0517,ABENIE Hotel
92,Kapoeta,SS,70.88,overcast clouds,4.7717,33.5903,Eastgate Hotel
94,Avarua,CK,78.85,broken clouds,-21.2078,-159.775,Paradise Inn
99,Pahrump,US,74.52,clear sky,36.2083,-115.9839,Best Western Pahrump Oasis
100,Hambantota,LK,80.1,broken clouds,6.1241,81.1185,Bungalow 63
104,Uvira,CD,71.28,overcast clouds,-3.4067,29.1458,Hotel Suzana
106,Samarai,PG,81.07,overcast clouds,-10.6167,150.6667,Nuli Sapi
109,Loiza,PR,80.6,overcast clouds,18.4313,-65.8802,Puerto Rico Vacation Villas at Aquatika
114,Baran,IN,85.08,clear sky,25.1,76.5167,Hotel shree ji
115,Atuona,PF,79.23,few clouds,-9.8,-139.0333,Villa Enata
119,Salvador,SV,82.44,broken clouds,13.8333,-88.9167,Chico's Ranch
122,Magdalena,PH,80.35,overcast clouds,14.1999,121.429,Samparada & Gestiada Residences
123,Saint-Philippe,RE,73.22,broken clouds,-21.3585,55.7679,"Chambres d'hôte ""La Trinité"""
124,Sur,OM,86.68,clear sky,22.5667,59.5289,Sur Plaza Hotel
125,Quatre Cocos,MU,78.91,light rain,-20.2078,57.7625,Sunrise Attitude Hotel
126,Victoria,HK,70.25,overcast clouds,22.2855,114.1577,Mini Hotel Central
128,Hithadhoo,MV,82.85,broken clouds,-0.6,73.0833,Scoop Guest House
129,Bowen,AU,73.45,scattered clouds,-20.0167,148.2333,Castle Motor Lodge Motel
130,Mangaratiba,BR,70.66,few clouds,-22.9597,-44.0406,Portobello Resort & Safari
132,Kano,NG,78.69,moderate rain,12.0001,8.5167,Royal Tropicana Hotel
133,Tahta,EG,81.81,clear sky,26.7693,31.5021,فندق الزيات
135,Ponta Do Sol,PT,72.23,overcast clouds,32.6667,-17.1,Hotel do Campo
139,Lazaro Cardenas,MX,82.42,scattered clouds,17.9583,-102.2,HOTEL QUINTA ANTIGUA
146,Vanimo,PG,79.18,broken clouds,-2.6741,141.3028,Vahmoneh Lodge Vanimo
149,Tual,ID,83.48,light rain,-5.6667,132.75,Grand Vilia Hotel
153,Bathsheba,BB,81.21,scattered clouds,13.2167,-59.5167,Atlantis Hotel
155,Alofi,NU,84.09,scattered clouds,-19.0595,-169.9187,Taloa Heights
157,Puri,IN,77.52,light rain,19.8,85.85,OYO 1577 Hotel Shree Hari Grand
158,Laguna,US,70.92,scattered clouds,38.421,-121.4238,"Holiday Inn Express & Suites Elk Grove Central - Hwy 99, an IHG Hotel"
163,Tabou,CI,79.56,light rain,4.423,-7.3528,hotêl doufoulougou
168,Kudahuvadhoo,MV,82.78,overcast clouds,2.6708,72.8944,Niyama Private Islands Maldives
170,Acarau,BR,79.59,scattered clouds,-2.8856,-40.12,castelo pizzaria
172,Tallahassee,US,80.8,overcast clouds,30.4383,-84.2807,Four Points by Sheraton Tallahassee Downtown
173,Ambon,ID,77.14,few clouds,-3.6954,128.1814,Swiss-Belhotel Ambon
179,Vila Velha,BR,76.95,broken clouds,-20.3297,-40.2925,Hotel Vitória Palace
185,Maningrida,AU,76.15,overcast clouds,-12.0667,134.2667,Dhukurrdji Lodge
188,Papara,BR,81.0,broken clouds,-3.9839,-38.7273,Bela vista Maranguape
189,Carutapera,BR,77.49,light rain,-1.195,-46.02,Lidera
192,Bucerias,MX,78.78,scattered clouds,20.75,-105.3333,Royal Decameron Complex - Puerto Vallarta
198,Mahebourg,MU,79.09,broken clouds,-20.4081,57.7,Shandrani Beachcomber Resort & Spa
200,Namibe,AO,73.63,scattered clouds,-15.1961,12.1522,Hotel Chik Chik Namibe
212,Saint George,US,79.39,haze,37.1041,-113.5841,Best Western Plus Abbey Inn
214,Ternate,ID,80.31,overcast clouds,0.8,127.4,Sahid Bela Ternate Hotel
218,Altamira,BR,75.36,broken clouds,-3.2033,-52.2064,Requinte Hotel
223,Karratha,AU,81.77,scattered clouds,-20.7377,116.8463,ibis Styles Karratha
224,Souillac,MU,79.18,light rain,-20.5167,57.5167,Shanti Maurice Resort & Spa
227,Diu,IN,77.65,clear sky,20.7141,70.9822,Hotel Relax Inn
233,Ewa Beach,US,82.35,few clouds,21.3156,-158.0072,Base Lodging
234,Naica,MX,88.25,overcast clouds,27.85,-105.4833,Departamentos Nicole
238,Obidos,BR,75.51,overcast clouds,-1.9175,-55.5181,Hotel Amazônia Center
240,Sambava,MG,74.75,clear sky,-14.2667,50.1667,Melrose
241,Bengkulu,ID,76.89,overcast clouds,-3.8004,102.2655,Grage Hotel Bengkulu
243,Tamandare,BR,81.16,clear sky,-8.7597,-35.1047,Pousada 100 Passos
251,Cayenne,GF,82.09,scattered clouds,4.9333,-52.3333,Hôtel Le Dronmi
257,Saint-Joseph,RE,72.21,scattered clouds,-21.3667,55.6167,"""Plantation Bed and Breakfast"
259,Bubaque,GW,75.7,clear sky,11.2833,-15.8333,"Casa Dora, Bubaque"
261,Beira,MZ,80.69,scattered clouds,-19.8436,34.8389,Beira Terrace Hotel
268,Paita,PE,71.44,few clouds,-5.0892,-81.1144,Hotel Náutico de Paita
273,Vicuna,CL,74.77,clear sky,-30.0319,-70.7081,Los Mosaicos
275,Huejuquilla El Alto,MX,89.2,overcast clouds,22.6,-103.8667,Hotel Huexuquillan
279,Robertsport,LR,79.99,overcast clouds,6.7533,-11.3686,Kwepunha Retreat
281,Huarmey,PE,70.7,broken clouds,-10.0681,-78.1522,Hotel Miramar
282,Puerto Quijarro,BO,80.55,clear sky,-17.7833,-57.7667,Hotel palance
284,Tura,IN,70.18,scattered clouds,25.5198,90.2201,Hotel RIKMAN Continental
287,Noumea,NC,80.58,clear sky,-22.2763,166.4572,Hôtel Le Lagon
290,Sabya,SA,82.02,broken clouds,17.1495,42.6254,Aseel Hotel Apartment
291,Warri,NG,78.67,overcast clouds,5.5167,5.75,BON Hotel Delta
292,Kavieng,PG,82.89,scattered clouds,-2.5744,150.7967,Nusa Island Retreat
296,Weligama,LK,79.5,broken clouds,5.9667,80.4167,Weligama Bay Resort
297,Puerto Escondido,MX,88.63,scattered clouds,15.85,-97.0667,Aldea del Bazar Hotel and Spa
298,Birur,IN,72.88,broken clouds,13.6167,75.9667,Birur
302,Meadow Lake,US,80.78,scattered clouds,34.8014,-106.5436,TumbleWeed RV Park
303,Pokaran,IN,81.23,few clouds,26.9167,71.9167,Motel Pokaran - RTDC
304,Ahuimanu,US,82.11,light rain,21.4447,-157.8378,Paradise Bay Resort
306,Innisfail,AU,74.28,overcast clouds,-17.5333,146.0333,Moondarra Motel
313,Teknaf,BD,77.41,scattered clouds,20.8624,92.3058,Forestry Guesthouse
316,Omboue,GA,78.12,light rain,-1.5746,9.2618,Hotel Olako
320,Bogale,MM,79.48,few clouds,16.2833,95.4,Aung Pin Lel Guest House
321,Praia,CV,70.34,scattered clouds,14.9215,-23.5087,LT Aparthotel
323,Key West,US,86.0,scattered clouds,24.5557,-81.7826,Fairfield Inn & Suites by Marriott Key West
324,Cabo San Lucas,MX,88.9,broken clouds,22.8909,-109.9124,Hotel Tesoro Los Cabos
325,Arraial Do Cabo,BR,73.26,clear sky,-22.9661,-42.0278,Pousada Porto Praia
328,Bajil,YE,83.19,few clouds,15.0584,43.2851,فندق حضرموت
332,Bagli,IN,82.99,clear sky,22.65,76.35,Yash carpenter
333,Russell,US,73.0,few clouds,32.3502,-85.1999,Macs
336,Luanda,AO,76.98,moderate rain,-8.8368,13.2343,EPIC SANA Luanda
338,Mayumba,GA,77.9,scattered clouds,-3.432,10.6554,LIKWALE LODGE
342,Jalu,LY,75.97,broken clouds,29.0331,21.5482,صاحبة الفخامة
345,Vao,NC,76.6,clear sky,-22.6667,167.4833,Hotel Kou-Bugny
346,Alta Floresta,BR,74.46,moderate rain,-9.8756,-56.0861,Floresta Amazonica Hotel
347,Keti Bandar,PK,79.57,few clouds,24.1447,67.4497,Haji laloo memon house
354,Hobyo,SO,82.45,scattered clouds,5.3505,48.5268,Iftin hotel hobyo
361,Inhambane,MZ,73.06,light rain,-23.865,35.3833,Oceano
364,Xuddur,SO,80.1,overcast clouds,4.1213,43.8894,Banjanay Hotel
367,Kununurra,AU,75.18,few clouds,-15.7667,128.7333,Hotel Kununurra
368,Acapulco,MX,85.82,clear sky,16.8634,-99.8901,HS Hotsson Smart Acapulco
374,Khadro,PK,86.34,scattered clouds,26.1472,68.7176,Bismillah Hotal bus stop Khadro
379,Bandarbeyla,SO,81.28,scattered clouds,9.4942,50.8122,JABIR HOTEL
385,Pontian Kecil,MY,79.12,overcast clouds,1.4801,103.3899,SUNFLOWER EXPRESS HOTEL
394,Kavaratti,IN,83.53,few clouds,10.5669,72.642,Hotels in Lakshadweep Islands
395,Sulangan,PH,81.1,broken clouds,11.1373,123.7228,Maia's Beach Resort
397,Tamiahua,MX,84.74,few clouds,21.2667,-97.45,Mission Of The Sun Hotel
398,Carnarvon,AU,73.47,scattered clouds,-24.8667,113.6333,Hospitality Carnarvon
400,Nuevo Progreso,MX,86.54,few clouds,23.1667,-97.95,Balneario Rio el Paraiso
408,Labuhan,ID,78.26,overcast clouds,-6.8844,112.2051,DoubleFAG
411,Meulaboh,ID,77.61,scattered clouds,4.1363,96.1285,Kost Pria
412,Santa Ana,US,76.64,few clouds,33.7456,-117.8678,"Motel 6 Santa Ana, CA"
416,Axim,GH,74.35,moderate rain,4.8699,-2.2405,Axim Beach Resort And Spa
420,Quang Ngai,VN,73.67,broken clouds,15.1167,108.8,Central Hotel
422,Celestun,MX,82.63,clear sky,20.8667,-90.4,Posada Lilia
423,San Juan,AR,72.55,clear sky,-31.5375,-68.5364,Hotel Provincial
428,Palu,ID,75.76,overcast clouds,-0.8917,119.8707,Hotel Santika Palu
429,Wilmington,US,73.31,few clouds,34.2257,-77.9447,"Hotel Ballast Wilmington, Tapestry Collection by Hilton"
435,Aswan,EG,85.3,clear sky,24.0934,32.907,Nuba Nile
437,Sao Joao Da Barra,BR,73.26,broken clouds,-21.6403,-41.0511,Pousada Porto De Canoas
442,Sorong,ID,81.21,broken clouds,-0.8833,131.25,Waigo Splash Hotel
443,Kloulklubed,PW,73.9,scattered clouds,7.0419,134.2556,Storyboard Beach Resort
447,Bambanglipuro,ID,76.41,scattered clouds,-7.95,110.2833,Puri Brata
448,Machico,PT,72.23,few clouds,32.7,-16.7667,Dom Pedro Madeira Hotel
449,Iracoubo,GF,78.33,overcast clouds,5.4802,-53.2011,Le Gîte d’Iracoubo
450,Ixtapa,MX,78.03,scattered clouds,20.7,-105.2,hotel la terminal
451,Grand-Lahou,CI,77.31,light rain,5.1367,-5.0242,Hotel Beatitude de Grand Lahou
452,Fare,PF,81.07,clear sky,-16.7,-151.0167,Maitai Lapita Village Huahine
454,San Cristobal,VE,78.98,overcast clouds,7.7669,-72.225,Pirineos
455,Nkan,GA,76.75,overcast clouds,0.3833,9.7833,Hôtel Santa Barbara
456,Solana Beach,US,74.19,clear sky,32.9912,-117.2711,Hilton San Diego/Del Mar
457,Takoradi,GH,75.25,light rain,4.8845,-1.7554,Raybow International Hotel
463,Paine,CL,72.84,clear sky,-33.8167,-70.75,Hotel El Almendro
464,Atar,MR,82.24,clear sky,20.5169,-13.0499,Oumou Elghoura
465,Morgan City,US,85.01,scattered clouds,29.6994,-91.2068,Hampton Inn & Suites Morgan City
471,Rio Verde De Mato Grosso,BR,71.85,clear sky,-18.9181,-54.8442,Quedas Palace Hotel
472,Salalah,OM,80.69,scattered clouds,17.0151,54.0924,"HAMDAN PLAZA HOTEL SALALAH, an HTG Hotel"
474,Kailua,US,82.38,light rain,21.4022,-157.7394,Sheffield House Bed & Breakfast
479,Guane,CU,79.57,scattered clouds,22.2025,-84.0875,base de Campismo LosPortales de Guane
480,Dingle,PH,78.28,scattered clouds,10.9995,122.6711,SEGAYA PROPERTY
484,Ubon Ratchathani,TH,84.97,overcast clouds,15.1667,105.1667,บ้านอินทร์โชติ
486,Camopi,GF,73.15,broken clouds,3.1655,-52.3158,La pousada
487,Sweetwater,US,83.01,scattered clouds,25.7634,-80.3731,Courtyard by Marriott Miami at Dolphin Mall
493,Netarhat,IN,71.08,broken clouds,23.4833,84.2667,HOTEL PRAKASH
498,Kutum,SD,74.23,scattered clouds,14.2,24.6667,Dibbo areaمنطقة دبو
499,Sena Madureira,BR,76.78,broken clouds,-9.0656,-68.6569,Hotel Central
502,Sola,VU,81.95,broken clouds,-13.8833,167.55,Leumerus Bungalows
503,Beyla,GN,70.81,moderate rain,8.6833,-8.6333,DIAN SINKO
504,Dangriga,BZ,81.32,overcast clouds,16.9692,-88.2321,Chaleanor Hotel
512,Porto Novo,BJ,82.22,overcast clouds,6.4965,2.6036,Tour Eiffel Hotel Benin
514,Tabuk,PH,74.3,overcast clouds,17.4189,121.4443,Golden Berries Hotel and Convention
523,Kilakarai,IN,84.63,few clouds,9.2333,78.7833,Kilakarai Home Stays
524,Mareeba,AU,72.32,overcast clouds,-17.0,145.4333,Trinity Plains Tourist Park
528,Namatanai,PG,81.88,overcast clouds,-3.6667,152.4333,Seagulls Inn Namatani
530,Juba,SS,73.2,overcast clouds,4.8517,31.5825,ROYAL PALACE HOTEL - JUBA
534,Lampang,TH,84.85,scattered clouds,18.3333,99.5,Mrs Luis Guest House
536,Domoni,KM,79.27,light rain,-12.2569,44.5319,Al Djadid
537,Touros,BR,80.44,broken clouds,-5.1989,-35.4608,INN NEW HORIZON
539,Jibuti,DJ,75.61,scattered clouds,11.5,42.5,Orchid Main Camp Goubet
543,Kirakira,SB,83.5,broken clouds,-10.4544,161.9205,SanBiz Lodge
544,Irece,BR,73.08,overcast clouds,-11.3042,-41.8558,Hotel Copa 70
545,Maryborough,AU,73.08,few clouds,-25.5333,152.7,Blue Shades Motel
546,Porto Walter,BR,75.74,broken clouds,-8.2686,-72.7439,Secretaria de saúde
547,Tagusao,PH,80.8,broken clouds,9.1924,117.8141,Green Villa beach resort
549,Santa Cruz,BO,71.65,broken clouds,-17.8,-63.1667,Aviador Hotel Boutique
550,Champerico,GT,86.16,few clouds,14.3,-91.9167,"Hotel y restaurante ""El Diamante"""
552,Buchanan,LR,80.55,light rain,5.8808,-10.0467,Kamaneahn Hotel Inc
553,Natal,BR,83.05,few clouds,-5.795,-35.2094,Villa Park Hotel | Natal
554,Basco,PH,76.15,scattered clouds,20.4487,121.9702,Nathaniel's Lodge
560,Kahului,US,78.82,broken clouds,20.8947,-156.47,Maui Seaside Hotel
563,Sinnamary,GF,78.26,overcast clouds,5.3833,-52.95,ALETHEIA Appartement Sinnamary
565,Rockport,US,82.44,haze,28.0206,-97.0544,"Holiday Inn Express & Suites Rockport - Bay View, an IHG Hotel"
567,Banda Aceh,ID,79.57,broken clouds,5.5577,95.3222,OYO 884 Rumoh PMI Hotel
577,Corrales,US,81.9,"sand,dust whirls",35.2378,-106.6067,Quality Inn
578,Karhal,IN,82.6,clear sky,27.0003,78.9414,Ganga Bhavan
582,Karwar,IN,78.96,scattered clouds,14.8,74.1333,Netalco Connects
587,Caravelas,BR,77.52,overcast clouds,-17.7125,-39.2481,Pousada dos Navegantes
589,Palmas,BR,84.07,moderate rain,-10.2128,-48.3603,Hotel Lago da Palma
594,Kokopo,PG,82.56,overcast clouds,-4.352,152.2633,Kokopo Beach Bungalow Resort
601,Pundaguitan,PH,81.0,broken clouds,6.3711,126.1689,Leonardo Family Beach House 1
602,Elizabeth City,US,75.22,broken clouds,36.2946,-76.2511,Hampton Inn Elizabeth City
603,Eyl,SO,80.4,scattered clouds,7.9803,49.8164,Amiin Hotel
604,Harper,LR,78.57,light rain,4.375,-7.7169,Screensaver
605,Yelandur,IN,75.6,broken clouds,12.0667,77.0333,Nisarga Home Stay
606,Fairhope,US,80.76,broken clouds,30.523,-87.9033,Hampton Inn Fairhope-Mobile Bay
610,Mayo,US,75.61,light rain,38.8876,-76.5119,Resorts Resource Group International
613,Ibotirama,BR,73.06,overcast clouds,-12.1853,-43.2206,Serra do Rio Hotel
616,Biak,ID,78.3,overcast clouds,-0.9131,122.8766,Penginapan Kim
619,Tevaitoa,PF,81.21,clear sky,-16.7833,-151.5,Hôtel Raiatea Lodge
620,Bachaquero,VE,84.45,broken clouds,9.9694,-71.1494,casa de los dinosaurios
622,Manggar,ID,80.96,broken clouds,-2.8833,108.2667,Guest Hotel
627,Guanica,PR,81.5,overcast clouds,17.9716,-66.908,Copamarina Beach Resort & Spa
629,Mocuba,MZ,70.47,light rain,-16.8392,36.9856,Phama Lodge
634,Chinchani,IN,79.09,clear sky,19.8667,72.7,Vasantshrushti Farm
636,Saint-Georges,GD,82.08,few clouds,12.0564,-61.7485,Radisson Grenada Beach Resort
642,Iramuco,MX,89.71,clear sky,19.95,-100.9167,La Hacienda Centro Cultural y de Entretenimiento
649,Morwa,IN,78.21,clear sky,22.9,73.8333,mahakali maa hotel
650,Alyangula,AU,78.67,overcast clouds,-13.8483,136.4192,Groote Eylandt Lodge
654,Quelimane,MZ,80.55,broken clouds,-17.8786,36.8883,Hotel Flamingo
657,Iquitos,PE,84.24,scattered clouds,-3.7481,-73.2472,Cortez Malaga Techy Caroly
658,Gizo,SB,82.26,light rain,-8.103,156.8419,Imagination Island
659,Itacare,BR,74.82,overcast clouds,-14.2775,-38.9967,Ecoporan Hotel Charme Spa & Eventos
663,Boa Vista,BR,89.58,few clouds,2.8197,-60.6733,Aipana Plaza Hotel
673,Sokoni,TZ,78.66,light rain,-6.4333,39.55,Ujamaa Beach Resort
676,Marsh Harbour,BS,76.93,clear sky,26.5412,-77.0636,Abaco Beach Resort
677,Teahupoo,PF,80.56,light rain,-17.8333,-149.2667,Vanira Lodge
681,Manakara,MG,72.55,scattered clouds,-22.1333,48.0167,La Residence Manakara
684,Nagaur,IN,81.03,clear sky,27.2,73.7333,Ranvas Nagaur
688,Farmington,US,75.88,clear sky,36.7281,-108.2187,Courtyard by Marriott Farmington
689,Belmonte,BR,76.6,moderate rain,-15.8631,-38.8828,Pousada Monte Carmelo O Pão
690,Muli,MV,82.99,broken clouds,2.9167,73.5667,Medhufushi Island Resort
691,Baleshwar,IN,77.88,clear sky,21.4942,86.9317,Banjara Hotels Pvt Ltd
